	{"type": "FeatureCollection", "features": [{"type": "Feature", "properties": {"city": "Saint Paul", "state": "Minnesota", "latitude": 44.9537029, "longitude": -93.0899578}, "geometry": {"type": "Point", "coordinates": [-93.0899578, 44.9537029]}}, {"type": "Feature", "properties": {"city": "Milwaukee", "state": "Wisconsin", "latitude": 43.0389025, "longitude": -87.9064736}, "geometry": {"type": "Point", "coordinates": [-87.9064736, 43.0389025]}}, {"type": "Feature", "properties": {"city": "North Chicago", "state": "Illinois", "latitude": 42.325578, "longitude": -87.8411818}, "geometry": {"type": "Point", "coordinates": [-87.8411818, 42.325578]}}, {"type": "Feature", "properties": {"city": "Dublin", "state": "Ireland", "latitude": 53.3498053, "longitude": -6.2603097}, "geometry": {"type": "Point", "coordinates": [-6.2603097, 53.3498053]}}, {"type": "Feature", "properties": {"city": "San Jose", "state": "California", "latitude": 37.33874, "longitude": -121.8852525}, "geometry": {"type": "Point", "coordinates": [-121.8852525, 37.33874]}}, {"type": "Feature", "properties": {"city": "Santa Clara", "state": "California", "latitude": 37.3541079, "longitude": -121.9552356}, "geometry": {"type": "Point", "coordinates": [-121.9552356, 37.3541079]}}, {"type": "Feature", "properties": {"city": "Arlington", "state": "Virginia", "latitude": 38.8816208, "longitude": -77.09098089999999}, "geometry": {"type": "Point", "coordinates": [-77.09098089999999, 38.8816208]}}, {"type": "Feature", "properties": {"city": "Columbus", "state": "Georgia", "latitude": 32.4609764, "longitude": -84.9877094}, "geometry": {"type": "Point", "coordinates": [-84.9877094, 32.4609764]}}, {"type": "Feature", "properties": {"city": "Upper Macungie Township", "state": "Pennsylvania", "latitude": 40.5697736, "longitude": -75.632447}, "geometry": {"type": "Point", "coordinates": [-75.632447, 40.5697736]}}, {"type": "Feature", "properties": {"city": "San Francisco", "state": "California", "latitude": 37.7749295, "longitude": -122.4194155}, "geometry": {"type": "Point", "coordinates": [-122.4194155, 37.7749295]}}, {"type": "Feature", "properties": {"city": "Cambridge", "state": "Massachusetts", "latitude": 42.3736158, "longitude": -71.10973349999999}, "geometry": {"type": "Point", "coordinates": [-71.10973349999999, 42.3736158]}}, {"type": "Feature", "properties": {"city": "Charlotte", "state": "North Carolina", "latitude": 35.2270869, "longitude": -80.8431267}, "geometry": {"type": "Point", "coordinates": [-80.8431267, 35.2270869]}}, {"type": "Feature", "properties": {"city": "Pasadena", "state": "California", "latitude": 34.1477849, "longitude": -118.1445155}, "geometry": {"type": "Point", "coordinates": [-118.1445155, 34.1477849]}}, {"type": "Feature", "properties": {"city": "Tempe", "state": "Arizona", "latitude": 33.4255104, "longitude": -111.9400054}, "geometry": {"type": "Point", "coordinates": [-111.9400054, 33.4255104]}}, {"type": "Feature", "properties": {"city": "Madison", "state": "Wisconsin", "latitude": 43.0721661, "longitude": -89.4007501}, "geometry": {"type": "Point", "coordinates": [-89.4007501, 43.0721661]}}, {"type": "Feature", "properties": {"city": "Northbrook", "state": "Illinois", "latitude": 42.1275267, "longitude": -87.82895479999999}, "geometry": {"type": "Point", "coordinates": [-87.82895479999999, 42.1275267]}}, {"type": "Feature", "properties": {"city": "Mountain View", "state": "California", "latitude": 37.3900264, "longitude": -122.0812304}, "geometry": {"type": "Point", "coordinates": [-122.0812304, 37.3900264]}}, {"type": "Feature", "properties": {"city": "Richmond", "state": "Virginia", "latitude": 37.5407246, "longitude": -77.4360481}, "geometry": {"type": "Point", "coordinates": [-77.4360481, 37.5407246]}}, {"type": "Feature", "properties": {"city": "Seattle", "state": "Washington", "latitude": 47.6061389, "longitude": -122.3328481}, "geometry": {"type": "Point", "coordinates": [-122.3328481, 47.6061389]}}, {"type": "Feature", "properties": {"city": "Warmley", "state": "Bristol", "latitude": 51.45952699999999, "longitude": -2.474226}, "geometry": {"type": "Point", "coordinates": [-2.474226, 51.45952699999999]}}, {"type": "Feature", "properties": {"city": "Chantilly", "state": "Virginia", "latitude": 38.8942786, "longitude": -77.43109919999999}, "geometry": {"type": "Point", "coordinates": [-77.43109919999999, 38.8942786]}}, {"type": "Feature", "properties": {"city": "St. Louis", "state": "Missouri", "latitude": 38.6270025, "longitude": -90.19940419999999}, "geometry": {"type": "Point", "coordinates": [-90.19940419999999, 38.6270025]}}, {"type": "Feature", "properties": {"city": "Columbus", "state": "Ohio", "latitude": 39.9611755, "longitude": -82.99879419999999}, "geometry": {"type": "Point", "coordinates": [-82.99879419999999, 39.9611755]}}, {"type": "Feature", "properties": {"city": "New York City", "state": "New York", "latitude": 40.7127753, "longitude": -74.0059728}, "geometry": {"type": "Point", "coordinates": [-74.0059728, 40.7127753]}}, {"type": "Feature", "properties": {"city": "Boston", "state": "Massachusetts", "latitude": 42.3600825, "longitude": -71.0588801}, "geometry": {"type": "Point", "coordinates": [-71.0588801, 42.3600825]}}, {"type": "Feature", "properties": {"city": "Camden", "state": "New Jersey", "latitude": 39.9259463, "longitude": -75.1196199}, "geometry": {"type": "Point", "coordinates": [-75.1196199, 39.9259463]}}, {"type": "Feature", "properties": {"city": "Minneapolis", "state": "Minnesota", "latitude": 44.977753, "longitude": -93.2650108}, "geometry": {"type": "Point", "coordinates": [-93.2650108, 44.977753]}}, {"type": "Feature", "properties": {"city": "Berwyn", "state": "Pennsylvania", "latitude": 40.045824, "longitude": -75.4395931}, "geometry": {"type": "Point", "coordinates": [-75.4395931, 40.045824]}}, {"type": "Feature", "properties": {"city": "Thousand Oaks", "state": "California", "latitude": 34.1761133, "longitude": -118.8487793}, "geometry": {"type": "Point", "coordinates": [-118.8487793, 34.1761133]}}, {"type": "Feature", "properties": {"city": "Wallingford", "state": "Connecticut", "latitude": 41.4566578, "longitude": -72.82411259999999}, "geometry": {"type": "Point", "coordinates": [-72.82411259999999, 41.4566578]}}, {"type": "Feature", "properties": {"city": "Wilmington", "state": "Massachusetts", "latitude": 42.5481714, "longitude": -71.1724467}, "geometry": {"type": "Point", "coordinates": [-71.1724467, 42.5481714]}}, {"type": "Feature", "properties": {"city": "Canonsburg", "state": "Pennsylvania", "latitude": 40.2625702, "longitude": -80.18727969999999}, "geometry": {"type": "Point", "coordinates": [-80.18727969999999, 40.2625702]}}, {"type": "Feature", "properties": {"city": "London", "state": "UK", "latitude": 51.5072178, "longitude": -0.1275862}, "geometry": {"type": "Point", "coordinates": [-0.1275862, 51.5072178]}}, {"type": "Feature", "properties": {"city": "Houston", "state": "Texas", "latitude": 29.7600771, "longitude": -95.37011079999999}, "geometry": {"type": "Point", "coordinates": [-95.37011079999999, 29.7600771]}}, {"type": "Feature", "properties": {"city": "Cupertino", "state": "California", "latitude": 37.3229978, "longitude": -122.0321823}, "geometry": {"type": "Point", "coordinates": [-122.0321823, 37.3229978]}}, {"type": "Feature", "properties": {"city": "Hamilton", "state": "Bermuda", "latitude": 32.2950716, "longitude": -64.7842417}, "geometry": {"type": "Point", "coordinates": [-64.7842417, 32.2950716]}}, {"type": "Feature", "properties": {"city": "Chicago", "state": "Illinois", "latitude": 41.8781136, "longitude": -87.6297982}, "geometry": {"type": "Point", "coordinates": [-87.6297982, 41.8781136]}}, {"type": "Feature", "properties": {"city": "Rolling Meadows", "state": "Illinois", "latitude": 42.0841936, "longitude": -88.0131275}, "geometry": {"type": "Point", "coordinates": [-88.0131275, 42.0841936]}}, {"type": "Feature", "properties": {"city": "Atlanta", "state": "Georgia", "latitude": 33.7501275, "longitude": -84.3885209}, "geometry": {"type": "Point", "coordinates": [-84.3885209, 33.7501275]}}, {"type": "Feature", "properties": {"city": "Dallas", "state": "Texas", "latitude": 32.7766642, "longitude": -96.79698789999999}, "geometry": {"type": "Point", "coordinates": [-96.79698789999999, 32.7766642]}}, {"type": "Feature", "properties": {"city": "Roseland", "state": "New Jersey", "latitude": 40.8206555, "longitude": -74.2937594}, "geometry": {"type": "Point", "coordinates": [-74.2937594, 40.8206555]}}, {"type": "Feature", "properties": {"city": "Memphis", "state": "Tennessee", "latitude": 35.1495343, "longitude": -90.0489801}, "geometry": {"type": "Point", "coordinates": [-90.0489801, 35.1495343]}}, {"type": "Feature", "properties": {"city": "Mentor", "state": "Ohio", "latitude": 41.6661573, "longitude": -81.339552}, "geometry": {"type": "Point", "coordinates": [-81.339552, 41.6661573]}}, {"type": "Feature", "properties": {"city": "Scottsdale", "state": "Arizona", "latitude": 33.4948764, "longitude": -111.9216734}, "geometry": {"type": "Point", "coordinates": [-111.9216734, 33.4948764]}}, {"type": "Feature", "properties": {"city": "Broomfield", "state": "Colorado", "latitude": 39.9205411, "longitude": -105.0866504}, "geometry": {"type": "Point", "coordinates": [-105.0866504, 39.9205411]}}, {"type": "Feature", "properties": {"city": "Deerfield", "state": "Illinois", "latitude": 42.1711365, "longitude": -87.8445119}, "geometry": {"type": "Point", "coordinates": [-87.8445119, 42.1711365]}}, {"type": "Feature", "properties": {"city": "Franklin Lakes", "state": "New Jersey", "latitude": 41.0167639, "longitude": -74.2057011}, "geometry": {"type": "Point", "coordinates": [-74.2057011, 41.0167639]}}, {"type": "Feature", "properties": {"city": "Omaha", "state": "Nebraska", "latitude": 41.2565369, "longitude": -95.9345034}, "geometry": {"type": "Point", "coordinates": [-95.9345034, 41.2565369]}}, {"type": "Feature", "properties": {"city": "Richfield", "state": "Minnesota", "latitude": 44.8832982, "longitude": -93.28300209999999}, "geometry": {"type": "Point", "coordinates": [-93.28300209999999, 44.8832982]}}, {"type": "Feature", "properties": {"city": "Norwalk", "state": "Connecticut", "latitude": 41.11774399999999, "longitude": -73.4081575}, "geometry": {"type": "Point", "coordinates": [-73.4081575, 41.11774399999999]}}, {"type": "Feature", "properties": {"city": "Auburn Hills", "state": "Michigan", "latitude": 42.6875323, "longitude": -83.2341028}, "geometry": {"type": "Point", "coordinates": [-83.2341028, 42.6875323]}}, {"type": "Feature", "properties": {"city": "Marlborough", "state": "Massachusetts", "latitude": 42.3459271, "longitude": -71.5522874}, "geometry": {"type": "Point", "coordinates": [-71.5522874, 42.3459271]}}, {"type": "Feature", "properties": {"city": "Palo Alto", "state": "California", "latitude": 37.4418834, "longitude": -122.1430195}, "geometry": {"type": "Point", "coordinates": [-122.1430195, 37.4418834]}}, {"type": "Feature", "properties": {"city": "Lake Success", "state": "New York", "latitude": 40.7698453, "longitude": -73.70904279999999}, "geometry": {"type": "Point", "coordinates": [-73.70904279999999, 40.7698453]}}, {"type": "Feature", "properties": {"city": "Daytona Beach", "state": "Florida", "latitude": 29.2108147, "longitude": -81.0228331}, "geometry": {"type": "Point", "coordinates": [-81.0228331, 29.2108147]}}, {"type": "Feature", "properties": {"city": "Louisville", "state": "Kentucky", "latitude": 38.2468618, "longitude": -85.7663724}, "geometry": {"type": "Point", "coordinates": [-85.7663724, 38.2468618]}}, {"type": "Feature", "properties": {"city": "Irving", "state": "Texas", "latitude": 32.8140177, "longitude": -96.9488945}, "geometry": {"type": "Point", "coordinates": [-96.9488945, 32.8140177]}}, {"type": "Feature", "properties": {"city": "Chesterfield", "state": "Missouri", "latitude": 38.6631083, "longitude": -90.5770675}, "geometry": {"type": "Point", "coordinates": [-90.5770675, 38.6631083]}}, {"type": "Feature", "properties": {"city": "Eden Prairie", "state": "Minnesota", "latitude": 44.8546856, "longitude": -93.47078599999999}, "geometry": {"type": "Point", "coordinates": [-93.47078599999999, 44.8546856]}}, {"type": "Feature", "properties": {"city": "Reno", "state": "Nevada", "latitude": 39.529919, "longitude": -119.8142691}, "geometry": {"type": "Point", "coordinates": [-119.8142691, 39.529919]}}, {"type": "Feature", "properties": {"city": "Tysons Corner", "state": "Virginia", "latitude": 38.9187222, "longitude": -77.2310925}, "geometry": {"type": "Point", "coordinates": [-77.2310925, 38.9187222]}}, {"type": "Feature", "properties": {"city": "Dublin", "state": "Ohio", "latitude": 40.0992294, "longitude": -83.1140771}, "geometry": {"type": "Point", "coordinates": [-83.1140771, 40.0992294]}}, {"type": "Feature", "properties": {"city": "Miami", "state": "Florida", "latitude": 25.7616798, "longitude": -80.1917902}, "geometry": {"type": "Point", "coordinates": [-80.1917902, 25.7616798]}}, {"type": "Feature", "properties": {"city": "Palm Beach Gardens", "state": "Florida", "latitude": 26.8396096, "longitude": -80.1019144}, "geometry": {"type": "Point", "coordinates": [-80.1019144, 26.8396096]}}, {"type": "Feature", "properties": {"city": "Somerset", "state": "New Jersey", "latitude": 40.497604, "longitude": -74.48848679999999}, "geometry": {"type": "Point", "coordinates": [-74.48848679999999, 40.497604]}}, {"type": "Feature", "properties": {"city": "Vernon Hills", "state": "Illinois", "latitude": 42.23933230000001, "longitude": -87.9653565}, "geometry": {"type": "Point", "coordinates": [-87.9653565, 42.23933230000001]}}, {"type": "Feature", "properties": {"city": "Conshohocken", "state": "Pennsylvania", "latitude": 40.0792766, "longitude": -75.3015714}, "geometry": {"type": "Point", "coordinates": [-75.3015714, 40.0792766]}}, {"type": "Feature", "properties": {"city": "Westlake", "state": "Texas", "latitude": 32.991235, "longitude": -97.19501380000001}, "geometry": {"type": "Point", "coordinates": [-97.19501380000001, 32.991235]}}, {"type": "Feature", "properties": {"city": "Stamford", "state": "Connecticut", "latitude": 41.0534302, "longitude": -73.5387341}, "geometry": {"type": "Point", "coordinates": [-73.5387341, 41.0534302]}}, {"type": "Feature", "properties": {"city": "San Ramon", "state": "California", "latitude": 37.7643595, "longitude": -121.9539616}, "geometry": {"type": "Point", "coordinates": [-121.9539616, 37.7643595]}}, {"type": "Feature", "properties": {"city": "Newport Beach", "state": "California", "latitude": 33.6041944, "longitude": -117.8738554}, "geometry": {"type": "Point", "coordinates": [-117.8738554, 33.6041944]}}, {"type": "Feature", "properties": {"city": "Zurich", "state": "Switzerland", "latitude": 47.3768866, "longitude": 8.541694}, "geometry": {"type": "Point", "coordinates": [8.541694, 47.3768866]}}, {"type": "Feature", "properties": {"city": "Ewing", "state": "New Jersey", "latitude": 40.2599864, "longitude": -74.79091249999999}, "geometry": {"type": "Point", "coordinates": [-74.79091249999999, 40.2599864]}}, {"type": "Feature", "properties": {"city": "Bloomfield", "state": "Connecticut", "latitude": 41.826488, "longitude": -72.73009449999999}, "geometry": {"type": "Point", "coordinates": [-72.73009449999999, 41.826488]}}, {"type": "Feature", "properties": {"city": "Fairfield", "state": "Ohio", "latitude": 39.3454673, "longitude": -84.5603187}, "geometry": {"type": "Point", "coordinates": [-84.5603187, 39.3454673]}}, {"type": "Feature", "properties": {"city": "Mason", "state": "Ohio", "latitude": 39.3600586, "longitude": -84.309939}, "geometry": {"type": "Point", "coordinates": [-84.309939, 39.3600586]}}, {"type": "Feature", "properties": {"city": "Providence", "state": "Rhode Island", "latitude": 41.8239891, "longitude": -71.4128343}, "geometry": {"type": "Point", "coordinates": [-71.4128343, 41.8239891]}}, {"type": "Feature", "properties": {"city": "Oakland", "state": "California", "latitude": 37.8043514, "longitude": -122.2711639}, "geometry": {"type": "Point", "coordinates": [-122.2711639, 37.8043514]}}, {"type": "Feature", "properties": {"city": "Jackson", "state": "Michigan", "latitude": 42.245869, "longitude": -84.40134619999999}, "geometry": {"type": "Point", "coordinates": [-84.40134619999999, 42.245869]}}, {"type": "Feature", "properties": {"city": "Teaneck", "state": "New Jersey", "latitude": 40.8932469, "longitude": -74.0116536}, "geometry": {"type": "Point", "coordinates": [-74.0116536, 40.8932469]}}, {"type": "Feature", "properties": {"city": "Philadelphia", "state": "Pennsylvania", "latitude": 39.9525839, "longitude": -75.1652215}, "geometry": {"type": "Point", "coordinates": [-75.1652215, 39.9525839]}}, {"type": "Feature", "properties": {"city": "Rochester", "state": "New York", "latitude": 43.15657789999999, "longitude": -77.6088465}, "geometry": {"type": "Point", "coordinates": [-77.6088465, 43.15657789999999]}}, {"type": "Feature", "properties": {"city": "Baltimore", "state": "Maryland", "latitude": 39.2903848, "longitude": -76.6121893}, "geometry": {"type": "Point", "coordinates": [-76.6121893, 39.2903848]}}, {"type": "Feature", "properties": {"city": "Corning", "state": "New York", "latitude": 42.1428521, "longitude": -77.05469029999999}, "geometry": {"type": "Point", "coordinates": [-77.05469029999999, 42.1428521]}}, {"type": "Feature", "properties": {"city": "Indianapolis", "state": "Indiana", "latitude": 39.76909, "longitude": -86.158018}, "geometry": {"type": "Point", "coordinates": [-86.158018, 39.76909]}}, {"type": "Feature", "properties": {"city": "Washington", "state": "D.C.", "latitude": 38.9071923, "longitude": -77.0368707}, "geometry": {"type": "Point", "coordinates": [-77.0368707, 38.9071923]}}, {"type": "Feature", "properties": {"city": "Issaquah", "state": "Washington", "latitude": 47.5300699, "longitude": -122.0329148}, "geometry": {"type": "Point", "coordinates": [-122.0329148, 47.5300699]}}, {"type": "Feature", "properties": {"city": "Austin", "state": "Texas", "latitude": 30.267153, "longitude": -97.7430608}, "geometry": {"type": "Point", "coordinates": [-97.7430608, 30.267153]}}, {"type": "Feature", "properties": {"city": "Jacksonville", "state": "Florida", "latitude": 30.3321838, "longitude": -81.65565099999999}, "geometry": {"type": "Point", "coordinates": [-81.65565099999999, 30.3321838]}}, {"type": "Feature", "properties": {"city": "Columbus", "state": "Indiana", "latitude": 39.2014404, "longitude": -85.9213796}, "geometry": {"type": "Point", "coordinates": [-85.9213796, 39.2014404]}}, {"type": "Feature", "properties": {"city": "Woonsocket", "state": "Rhode Island", "latitude": 42.00287609999999, "longitude": -71.51478390000001}, "geometry": {"type": "Point", "coordinates": [-71.51478390000001, 42.00287609999999]}}, {"type": "Feature", "properties": {"city": "Orlando", "state": "Florida", "latitude": 28.5383832, "longitude": -81.3789269}, "geometry": {"type": "Point", "coordinates": [-81.3789269, 28.5383832]}}, {"type": "Feature", "properties": {"city": "Denver", "state": "Colorado", "latitude": 39.7392358, "longitude": -104.990251}, "geometry": {"type": "Point", "coordinates": [-104.990251, 39.7392358]}}, {"type": "Feature", "properties": {"city": "Goleta", "state": "California", "latitude": 34.4358294, "longitude": -119.8276389}, "geometry": {"type": "Point", "coordinates": [-119.8276389, 34.4358294]}}, {"type": "Feature", "properties": {"city": "Moline", "state": "Illinois", "latitude": 41.5067003, "longitude": -90.51513419999999}, "geometry": {"type": "Point", "coordinates": [-90.51513419999999, 41.5067003]}}, {"type": "Feature", "properties": {"city": "Round Rock", "state": "Texas", "latitude": 30.5082551, "longitude": -97.678896}, "geometry": {"type": "Point", "coordinates": [-97.678896, 30.5082551]}}, {"type": "Feature", "properties": {"city": "Oklahoma City", "state": "Oklahoma", "latitude": 35.4675602, "longitude": -97.5164276}, "geometry": {"type": "Point", "coordinates": [-97.5164276, 35.4675602]}}, {"type": "Feature", "properties": {"city": "San Diego", "state": "California", "latitude": 32.715738, "longitude": -117.1610838}, "geometry": {"type": "Point", "coordinates": [-117.1610838, 32.715738]}}, {"type": "Feature", "properties": {"city": "Midland", "state": "Texas", "latitude": 31.9973456, "longitude": -102.0779146}, "geometry": {"type": "Point", "coordinates": [-102.0779146, 31.9973456]}}, {"type": "Feature", "properties": {"city": "Riverwoods", "state": "Illinois", "latitude": 42.1675254, "longitude": -87.897014}, "geometry": {"type": "Point", "coordinates": [-87.897014, 42.1675254]}}, {"type": "Feature", "properties": {"city": "Goodlettsville", "state": "Tennessee", "latitude": 36.3222823, "longitude": -86.71328489999999}, "geometry": {"type": "Point", "coordinates": [-86.71328489999999, 36.3222823]}}, {"type": "Feature", "properties": {"city": "Chesapeake", "state": "Virginia", "latitude": 36.7682088, "longitude": -76.2874927}, "geometry": {"type": "Point", "coordinates": [-76.2874927, 36.7682088]}}, {"type": "Feature", "properties": {"city": "Ann Arbor", "state": "Michigan", "latitude": 42.2808256, "longitude": -83.7430378}, "geometry": {"type": "Point", "coordinates": [-83.7430378, 42.2808256]}}, {"type": "Feature", "properties": {"city": "Downers Grove", "state": "Illinois", "latitude": 41.8089191, "longitude": -88.01117459999999}, "geometry": {"type": "Point", "coordinates": [-88.01117459999999, 41.8089191]}}, {"type": "Feature", "properties": {"city": "Midland", "state": "Michigan", "latitude": 43.6155825, "longitude": -84.2472116}, "geometry": {"type": "Point", "coordinates": [-84.2472116, 43.6155825]}}, {"type": "Feature", "properties": {"city": "Arlington", "state": "Texas", "latitude": 32.735687, "longitude": -97.10806559999999}, "geometry": {"type": "Point", "coordinates": [-97.10806559999999, 32.735687]}}, {"type": "Feature", "properties": {"city": "Detroit", "state": "Michigan", "latitude": 42.331427, "longitude": -83.0457538}, "geometry": {"type": "Point", "coordinates": [-83.0457538, 42.331427]}}, {"type": "Feature", "properties": {"city": "Wilmington", "state": "Delaware", "latitude": 39.744655, "longitude": -75.5483909}, "geometry": {"type": "Point", "coordinates": [-75.5483909, 39.744655]}}, {"type": "Feature", "properties": {"city": "Kingsport", "state": "Tennessee", "latitude": 36.548434, "longitude": -82.5618186}, "geometry": {"type": "Point", "coordinates": [-82.5618186, 36.548434]}}, {"type": "Feature", "properties": {"city": "Rosemead", "state": "California", "latitude": 34.0805651, "longitude": -118.072846}, "geometry": {"type": "Point", "coordinates": [-118.072846, 34.0805651]}}, {"type": "Feature", "properties": {"city": "Irvine", "state": "California", "latitude": 33.6845673, "longitude": -117.8265049}, "geometry": {"type": "Point", "coordinates": [-117.8265049, 33.6845673]}}, {"type": "Feature", "properties": {"city": "Redwood City", "state": "California", "latitude": 37.4847955, "longitude": -122.228141}, "geometry": {"type": "Point", "coordinates": [-122.228141, 37.4847955]}}, {"type": "Feature", "properties": {"city": "Ferguson", "state": "Missouri", "latitude": 38.7442175, "longitude": -90.3053915}, "geometry": {"type": "Point", "coordinates": [-90.3053915, 38.7442175]}}, {"type": "Feature", "properties": {"city": "Fremont", "state": "California", "latitude": 37.5485396, "longitude": -121.988583}, "geometry": {"type": "Point", "coordinates": [-121.988583, 37.5485396]}}, {"type": "Feature", "properties": {"city": "New Orleans", "state": "Louisiana", "latitude": 29.9508941, "longitude": -90.07583559999999}, "geometry": {"type": "Point", "coordinates": [-90.07583559999999, 29.9508941]}}, {"type": "Feature", "properties": {"city": "Newtown", "state": "Pennsylvania", "latitude": 40.2283371, "longitude": -74.9322596}, "geometry": {"type": "Point", "coordinates": [-74.9322596, 40.2283371]}}, {"type": "Feature", "properties": {"city": "Pittsburgh", "state": "Pennsylvania", "latitude": 40.44062479999999, "longitude": -79.9958864}, "geometry": {"type": "Point", "coordinates": [-79.9958864, 40.44062479999999]}}, {"type": "Feature", "properties": {"city": "Erie", "state": "Pennsylvania", "latitude": 42.12922409999999, "longitude": -80.085059}, "geometry": {"type": "Point", "coordinates": [-80.085059, 42.12922409999999]}}, {"type": "Feature", "properties": {"city": "San Mateo", "state": "California", "latitude": 37.5629917, "longitude": -122.3255254}, "geometry": {"type": "Point", "coordinates": [-122.3255254, 37.5629917]}}, {"type": "Feature", "properties": {"city": "Kansas City", "state": "Missouri", "latitude": 39.0997265, "longitude": -94.5785667}, "geometry": {"type": "Point", "coordinates": [-94.5785667, 39.0997265]}}, {"type": "Feature", "properties": {"city": "Hartford", "state": "Connecticut", "latitude": 41.7658043, "longitude": -72.6733723}, "geometry": {"type": "Point", "coordinates": [-72.6733723, 41.7658043]}}, {"type": "Feature", "properties": {"city": "Salt Lake City", "state": "Utah", "latitude": 40.7607793, "longitude": -111.8910474}, "geometry": {"type": "Point", "coordinates": [-111.8910474, 40.7607793]}}, {"type": "Feature", "properties": {"city": "Bozeman", "state": "Montana", "latitude": 45.67931189999999, "longitude": -111.037259}, "geometry": {"type": "Point", "coordinates": [-111.037259, 45.67931189999999]}}, {"type": "Feature", "properties": {"city": "Winona", "state": "Minnesota", "latitude": 44.0553908, "longitude": -91.6663523}, "geometry": {"type": "Point", "coordinates": [-91.6663523, 44.0553908]}}, {"type": "Feature", "properties": {"city": "Rockville", "state": "Maryland", "latitude": 39.0839973, "longitude": -77.1527578}, "geometry": {"type": "Point", "coordinates": [-77.1527578, 39.0839973]}}, {"type": "Feature", "properties": {"city": "Cincinnati", "state": "Ohio", "latitude": 39.1031182, "longitude": -84.5120196}, "geometry": {"type": "Point", "coordinates": [-84.5120196, 39.1031182]}}, {"type": "Feature", "properties": {"city": "Akron", "state": "Ohio", "latitude": 41.081199, "longitude": -81.51883769999999}, "geometry": {"type": "Point", "coordinates": [-81.51883769999999, 41.081199]}}, {"type": "Feature", "properties": {"city": "Brookfield", "state": "Wisconsin", "latitude": 43.0609354, "longitude": -88.12605549999999}, "geometry": {"type": "Point", "coordinates": [-88.12605549999999, 43.0609354]}}, {"type": "Feature", "properties": {"city": "Dearborn", "state": "Michigan", "latitude": 42.3222599, "longitude": -83.17631449999999}, "geometry": {"type": "Point", "coordinates": [-83.17631449999999, 42.3222599]}}, {"type": "Feature", "properties": {"city": "Sunnyvale", "state": "California", "latitude": 37.36883, "longitude": -122.0363496}, "geometry": {"type": "Point", "coordinates": [-122.0363496, 37.36883]}}, {"type": "Feature", "properties": {"city": "Everett", "state": "Washington", "latitude": 47.9789848, "longitude": -122.2020794}, "geometry": {"type": "Point", "coordinates": [-122.2020794, 47.9789848]}}, {"type": "Feature", "properties": {"city": "Phoenix", "state": "Arizona", "latitude": 33.4483771, "longitude": -112.0740373}, "geometry": {"type": "Point", "coordinates": [-112.0740373, 33.4483771]}}, {"type": "Feature", "properties": {"city": "Schaffhausen", "state": "Switzerland", "latitude": 47.6958897, "longitude": 8.6380488}, "geometry": {"type": "Point", "coordinates": [8.6380488, 47.6958897]}}, {"type": "Feature", "properties": {"city": "Evendale", "state": "Ohio", "latitude": 39.2561691, "longitude": -84.417997}, "geometry": {"type": "Point", "coordinates": [-84.417997, 39.2561691]}}, {"type": "Feature", "properties": {"city": "Waukesha", "state": "Wisconsin", "latitude": 43.0107836, "longitude": -88.2291729}, "geometry": {"type": "Point", "coordinates": [-88.2291729, 43.0107836]}}, {"type": "Feature", "properties": {"city": "Falls Church", "state": "Virginia", "latitude": 38.88233400000001, "longitude": -77.1710914}, "geometry": {"type": "Point", "coordinates": [-77.1710914, 38.88233400000001]}}, {"type": "Feature", "properties": {"city": "Golden Valley", "state": "Minnesota", "latitude": 44.9917149, "longitude": -93.3600034}, "geometry": {"type": "Point", "coordinates": [-93.3600034, 44.9917149]}}, {"type": "Feature", "properties": {"city": "Foster City", "state": "California", "latitude": 37.5585465, "longitude": -122.2710788}, "geometry": {"type": "Point", "coordinates": [-122.2710788, 37.5585465]}}, {"type": "Feature", "properties": {"city": "McKinney", "state": "Texas", "latitude": 33.1983388, "longitude": -96.6389342}, "geometry": {"type": "Point", "coordinates": [-96.6389342, 33.1983388]}}, {"type": "Feature", "properties": {"city": "Pawtucket", "state": "Rhode Island", "latitude": 41.878711, "longitude": -71.38255579999999}, "geometry": {"type": "Point", "coordinates": [-71.38255579999999, 41.878711]}}, {"type": "Feature", "properties": {"city": "Nashville", "state": "Tennessee", "latitude": 36.1626638, "longitude": -86.7816016}, "geometry": {"type": "Point", "coordinates": [-86.7816016, 36.1626638]}}, {"type": "Feature", "properties": {"city": "Melville", "state": "New York", "latitude": 40.7934322, "longitude": -73.41512139999999}, "geometry": {"type": "Point", "coordinates": [-73.41512139999999, 40.7934322]}}, {"type": "Feature", "properties": {"city": "Hershey", "state": "Pennsylvania", "latitude": 40.2859239, "longitude": -76.65024679999999}, "geometry": {"type": "Point", "coordinates": [-76.65024679999999, 40.2859239]}}, {"type": "Feature", "properties": {"city": "Austin", "state": "Minnesota", "latitude": 43.6666296, "longitude": -92.97463669999999}, "geometry": {"type": "Point", "coordinates": [-92.97463669999999, 43.6666296]}}, {"type": "Feature", "properties": {"city": "Bethesda", "state": "Maryland", "latitude": 38.984652, "longitude": -77.0947092}, "geometry": {"type": "Point", "coordinates": [-77.0947092, 38.984652]}}, {"type": "Feature", "properties": {"city": "Shelton", "state": "Connecticut", "latitude": 41.3164856, "longitude": -73.0931641}, "geometry": {"type": "Point", "coordinates": [-73.0931641, 41.3164856]}}, {"type": "Feature", "properties": {"city": "Columbus", "state": "Ohio; Detroit", "latitude": 42.3993728, "longitude": -83.1554084}, "geometry": {"type": "Point", "coordinates": [-83.1554084, 42.3993728]}}, {"type": "Feature", "properties": {"city": "Newport News", "state": "Virginia", "latitude": 37.0870821, "longitude": -76.4730122}, "geometry": {"type": "Point", "coordinates": [-76.4730122, 37.0870821]}}, {"type": "Feature", "properties": {"city": "Armonk", "state": "New York", "latitude": 41.1264849, "longitude": -73.71401949999999}, "geometry": {"type": "Point", "coordinates": [-73.71401949999999, 41.1264849]}}, {"type": "Feature", "properties": {"city": "Lake Forest", "state": "Illinois", "latitude": 42.2586342, "longitude": -87.840625}, "geometry": {"type": "Point", "coordinates": [-87.840625, 42.2586342]}}, {"type": "Feature", "properties": {"city": "Westbrook", "state": "Maine", "latitude": 43.6770252, "longitude": -70.3711617}, "geometry": {"type": "Point", "coordinates": [-70.3711617, 43.6770252]}}, {"type": "Feature", "properties": {"city": "Glenview", "state": "Illinois", "latitude": 42.0778065, "longitude": -87.8223368}, "geometry": {"type": "Point", "coordinates": [-87.8223368, 42.0778065]}}, {"type": "Feature", "properties": {"city": "Davidson", "state": "North Carolina", "latitude": 35.4993031, "longitude": -80.8486846}, "geometry": {"type": "Point", "coordinates": [-80.8486846, 35.4993031]}}, {"type": "Feature", "properties": {"city": "Acton", "state": "Massachusetts", "latitude": 42.4850931, "longitude": -71.43284}, "geometry": {"type": "Point", "coordinates": [-71.43284, 42.4850931]}}, {"type": "Feature", "properties": {"city": "Durham", "state": "North Carolina", "latitude": 35.9940329, "longitude": -78.898619}, "geometry": {"type": "Point", "coordinates": [-78.898619, 35.9940329]}}, {"type": "Feature", "properties": {"city": "Lowell", "state": "Arkansas", "latitude": 36.2541286, "longitude": -94.1368255}, "geometry": {"type": "Point", "coordinates": [-94.1368255, 36.2541286]}}, {"type": "Feature", "properties": {"city": "St. Petersburg", "state": "Florida", "latitude": 27.7671271, "longitude": -82.6384451}, "geometry": {"type": "Point", "coordinates": [-82.6384451, 27.7671271]}}, {"type": "Feature", "properties": {"city": "Monett", "state": "Missouri", "latitude": 36.9197522, "longitude": -93.92761030000001}, "geometry": {"type": "Point", "coordinates": [-93.92761030000001, 36.9197522]}}, {"type": "Feature", "properties": {"city": "New Brunswick", "state": "New Jersey", "latitude": 40.4862157, "longitude": -74.4518188}, "geometry": {"type": "Point", "coordinates": [-74.4518188, 40.4862157]}}, {"type": "Feature", "properties": {"city": "Cork", "state": "Ireland", "latitude": 51.8985143, "longitude": -8.4756035}, "geometry": {"type": "Point", "coordinates": [-8.4756035, 51.8985143]}}, {"type": "Feature", "properties": {"city": "Skillman", "state": "New Jersey", "latitude": 40.4201165, "longitude": -74.7146817}, "geometry": {"type": "Point", "coordinates": [-74.7146817, 40.4201165]}}, {"type": "Feature", "properties": {"city": "Burlington", "state": "Massachusetts", "latitude": 42.5047161, "longitude": -71.1956205}, "geometry": {"type": "Point", "coordinates": [-71.1956205, 42.5047161]}}, {"type": "Feature", "properties": {"city": "Cleveland", "state": "Ohio", "latitude": 41.49932, "longitude": -81.6943605}, "geometry": {"type": "Point", "coordinates": [-81.6943605, 41.49932]}}, {"type": "Feature", "properties": {"city": "Santa Rosa", "state": "California", "latitude": 38.440429, "longitude": -122.7140548}, "geometry": {"type": "Point", "coordinates": [-122.7140548, 38.440429]}}, {"type": "Feature", "properties": {"city": "Jericho", "state": "New York", "latitude": 40.79204410000001, "longitude": -73.5398476}, "geometry": {"type": "Point", "coordinates": [-73.5398476, 40.79204410000001]}}, {"type": "Feature", "properties": {"city": "Milpitas", "state": "California", "latitude": 37.4323341, "longitude": -121.8995741}, "geometry": {"type": "Point", "coordinates": [-121.8995741, 37.4323341]}}, {"type": "Feature", "properties": {"city": "Chicago", "state": "Illinois; Pittsburgh", "latitude": 41.8781136, "longitude": -87.6297982}, "geometry": {"type": "Point", "coordinates": [-87.6297982, 41.8781136]}}, {"type": "Feature", "properties": {"city": "Melbourne", "state": "Florida", "latitude": 28.0836269, "longitude": -80.60810889999999}, "geometry": {"type": "Point", "coordinates": [-80.60810889999999, 28.0836269]}}, {"type": "Feature", "properties": {"city": "Burlington", "state": "North Carolina", "latitude": 36.0959767, "longitude": -79.43716049999999}, "geometry": {"type": "Point", "coordinates": [-79.43716049999999, 36.0959767]}}, {"type": "Feature", "properties": {"city": "Eagle", "state": "Idaho", "latitude": 43.6954424, "longitude": -116.3540138}, "geometry": {"type": "Point", "coordinates": [-116.3540138, 43.6954424]}}, {"type": "Feature", "properties": {"city": "Las Vegas", "state": "Nevada", "latitude": 36.171563, "longitude": -115.1391009}, "geometry": {"type": "Point", "coordinates": [-115.1391009, 36.171563]}}, {"type": "Feature", "properties": {"city": "Reston", "state": "Virginia", "latitude": 38.9586307, "longitude": -77.35700279999999}, "geometry": {"type": "Point", "coordinates": [-77.35700279999999, 38.9586307]}}, {"type": "Feature", "properties": {"city": "Guildford", "state": "United Kingdom", "latitude": 51.23622, "longitude": -0.570409}, "geometry": {"type": "Point", "coordinates": [-0.570409, 51.23622]}}, {"type": "Feature", "properties": {"city": "Beverly Hills", "state": "California", "latitude": 34.0736204, "longitude": -118.4003563}, "geometry": {"type": "Point", "coordinates": [-118.4003563, 34.0736204]}}, {"type": "Feature", "properties": {"city": "Mooresville", "state": "North Carolina", "latitude": 35.5820319, "longitude": -80.8140473}, "geometry": {"type": "Point", "coordinates": [-80.8140473, 35.5820319]}}, {"type": "Feature", "properties": {"city": "Vancouver", "state": "Canada", "latitude": 49.2827291, "longitude": -123.1207375}, "geometry": {"type": "Point", "coordinates": [-123.1207375, 49.2827291]}}, {"type": "Feature", "properties": {"city": "Rotterdam", "state": "Netherlands", "latitude": 51.9244201, "longitude": 4.4777325}, "geometry": {"type": "Point", "coordinates": [4.4777325, 51.9244201]}}, {"type": "Feature", "properties": {"city": "Buffalo", "state": "New York", "latitude": 42.88644679999999, "longitude": -78.8783689}, "geometry": {"type": "Point", "coordinates": [-78.8783689, 42.88644679999999]}}, {"type": "Feature", "properties": {"city": "Findlay", "state": "Ohio", "latitude": 41.0391283, "longitude": -83.6502309}, "geometry": {"type": "Point", "coordinates": [-83.6502309, 41.0391283]}}, {"type": "Feature", "properties": {"city": "Raleigh", "state": "North Carolina", "latitude": 35.7795897, "longitude": -78.6381787}, "geometry": {"type": "Point", "coordinates": [-78.6381787, 35.7795897]}}, {"type": "Feature", "properties": {"city": "Livonia", "state": "Michigan", "latitude": 42.36837, "longitude": -83.35270969999999}, "geometry": {"type": "Point", "coordinates": [-83.35270969999999, 42.36837]}}, {"type": "Feature", "properties": {"city": "Harrison", "state": "New York", "latitude": 40.9700171, "longitude": -73.7176337}, "geometry": {"type": "Point", "coordinates": [-73.7176337, 40.9700171]}}, {"type": "Feature", "properties": {"city": "Hunt Valley", "state": "Maryland", "latitude": 39.4900013, "longitude": -76.65850739999999}, "geometry": {"type": "Point", "coordinates": [-76.65850739999999, 39.4900013]}}, {"type": "Feature", "properties": {"city": "Kenilworth", "state": "New Jersey", "latitude": 40.6764911, "longitude": -74.2907032}, "geometry": {"type": "Point", "coordinates": [-74.2907032, 40.6764911]}}, {"type": "Feature", "properties": {"city": "Menlo Park", "state": "California", "latitude": 37.4529598, "longitude": -122.1817252}, "geometry": {"type": "Point", "coordinates": [-122.1817252, 37.4529598]}}, {"type": "Feature", "properties": {"city": "Paradise", "state": "Nevada", "latitude": 36.0971945, "longitude": -115.1466648}, "geometry": {"type": "Point", "coordinates": [-115.1466648, 36.0971945]}}, {"type": "Feature", "properties": {"city": "Chandler", "state": "Arizona", "latitude": 33.3061605, "longitude": -111.8412502}, "geometry": {"type": "Point", "coordinates": [-111.8412502, 33.3061605]}}, {"type": "Feature", "properties": {"city": "Boise", "state": "Idaho", "latitude": 43.6150186, "longitude": -116.2023137}, "geometry": {"type": "Point", "coordinates": [-116.2023137, 43.6150186]}}, {"type": "Feature", "properties": {"city": "Redmond", "state": "Washington", "latitude": 47.6739881, "longitude": -122.121512}, "geometry": {"type": "Point", "coordinates": [-122.121512, 47.6739881]}}, {"type": "Feature", "properties": {"city": "Calhoun", "state": "Georgia", "latitude": 34.502587, "longitude": -84.9510542}, "geometry": {"type": "Point", "coordinates": [-84.9510542, 34.502587]}}, {"type": "Feature", "properties": {"city": "Long Beach", "state": "California", "latitude": 33.7700504, "longitude": -118.1937395}, "geometry": {"type": "Point", "coordinates": [-118.1937395, 33.7700504]}}, {"type": "Feature", "properties": {"city": "Kirkland", "state": "Washington", "latitude": 47.6768927, "longitude": -122.2059833}, "geometry": {"type": "Point", "coordinates": [-122.2059833, 47.6768927]}}, {"type": "Feature", "properties": {"city": "Corona", "state": "California", "latitude": 33.8752935, "longitude": -117.5664384}, "geometry": {"type": "Point", "coordinates": [-117.5664384, 33.8752935]}}, {"type": "Feature", "properties": {"city": "Tampa", "state": "Florida", "latitude": 27.9516896, "longitude": -82.45875269999999}, "geometry": {"type": "Point", "coordinates": [-82.45875269999999, 27.9516896]}}, {"type": "Feature", "properties": {"city": "Los Gatos", "state": "California", "latitude": 37.2358078, "longitude": -121.9623751}, "geometry": {"type": "Point", "coordinates": [-121.9623751, 37.2358078]}}, {"type": "Feature", "properties": {"city": "Juno Beach", "state": "Florida", "latitude": 26.8797819, "longitude": -80.0533743}, "geometry": {"type": "Point", "coordinates": [-80.0533743, 26.8797819]}}, {"type": "Feature", "properties": {"city": "Washington County", "state": "Oregon", "latitude": 45.5469616, "longitude": -123.1386021}, "geometry": {"type": "Point", "coordinates": [-123.1386021, 45.5469616]}}, {"type": "Feature", "properties": {"city": "Merrillville", "state": "Indiana", "latitude": 41.4828144, "longitude": -87.33281389999999}, "geometry": {"type": "Point", "coordinates": [-87.33281389999999, 41.4828144]}}, {"type": "Feature", "properties": {"city": "Westlake", "state": "Ohio", "latitude": 41.4553232, "longitude": -81.9179173}, "geometry": {"type": "Point", "coordinates": [-81.9179173, 41.4553232]}}, {"type": "Feature", "properties": {"city": "West Falls Church", "state": "Virginia", "latitude": 38.8645565, "longitude": -77.1877587}, "geometry": {"type": "Point", "coordinates": [-77.1877587, 38.8645565]}}, {"type": "Feature", "properties": {"city": "Eindhoven", "state": "Netherlands", "latitude": 51.42314229999999, "longitude": 5.462289699999999}, "geometry": {"type": "Point", "coordinates": [5.462289699999999, 51.42314229999999]}}, {"type": "Feature", "properties": {"city": "Springfield", "state": "Missouri", "latitude": 37.2089572, "longitude": -93.29229889999999}, "geometry": {"type": "Point", "coordinates": [-93.29229889999999, 37.2089572]}}, {"type": "Feature", "properties": {"city": "Thomasville", "state": "North Carolina", "latitude": 35.8826369, "longitude": -80.0819879}, "geometry": {"type": "Point", "coordinates": [-80.0819879, 35.8826369]}}, {"type": "Feature", "properties": {"city": "Tulsa", "state": "Oklahoma", "latitude": 36.1539816, "longitude": -95.99277500000001}, "geometry": {"type": "Point", "coordinates": [-95.99277500000001, 36.1539816]}}, {"type": "Feature", "properties": {"city": "Farmington", "state": "Connecticut", "latitude": 41.7360305, "longitude": -72.79502699999999}, "geometry": {"type": "Point", "coordinates": [-72.79502699999999, 41.7360305]}}, {"type": "Feature", "properties": {"city": "Bellevue", "state": "Washington", "latitude": 47.6101497, "longitude": -122.2015159}, "geometry": {"type": "Point", "coordinates": [-122.2015159, 47.6101497]}}, {"type": "Feature", "properties": {"city": "Penfield", "state": "New York", "latitude": 43.1303407, "longitude": -77.475551}, "geometry": {"type": "Point", "coordinates": [-77.475551, 43.1303407]}}, {"type": "Feature", "properties": {"city": "Worsley", "state": "United Kingdom", "latitude": 53.50754, "longitude": -2.391199}, "geometry": {"type": "Point", "coordinates": [-2.391199, 53.50754]}}, {"type": "Feature", "properties": {"city": "Purchase", "state": "New York", "latitude": 41.0400135, "longitude": -73.7144477}, "geometry": {"type": "Point", "coordinates": [-73.7144477, 41.0400135]}}, {"type": "Feature", "properties": {"city": "Covington", "state": "Louisiana", "latitude": 30.4754702, "longitude": -90.1009108}, "geometry": {"type": "Point", "coordinates": [-90.1009108, 30.4754702]}}, {"type": "Feature", "properties": {"city": "Allentown", "state": "Pennsylvania", "latitude": 40.6022939, "longitude": -75.4714098}, "geometry": {"type": "Point", "coordinates": [-75.4714098, 40.6022939]}}, {"type": "Feature", "properties": {"city": "Des Moines", "state": "Iowa", "latitude": 41.5868417, "longitude": -93.6249522}, "geometry": {"type": "Point", "coordinates": [-93.6249522, 41.5868417]}}, {"type": "Feature", "properties": {"city": "Mayfield Village", "state": "Ohio", "latitude": 41.5519952, "longitude": -81.4392828}, "geometry": {"type": "Point", "coordinates": [-81.4392828, 41.5519952]}}, {"type": "Feature", "properties": {"city": "Newark", "state": "New Jersey", "latitude": 40.735657, "longitude": -74.1723667}, "geometry": {"type": "Point", "coordinates": [-74.1723667, 40.735657]}}, {"type": "Feature", "properties": {"city": "Glendale", "state": "California", "latitude": 34.1425078, "longitude": -118.255075}, "geometry": {"type": "Point", "coordinates": [-118.255075, 34.1425078]}}, {"type": "Feature", "properties": {"city": "Greensboro", "state": "North Carolina", "latitude": 36.0725632, "longitude": -79.791534}, "geometry": {"type": "Point", "coordinates": [-79.791534, 36.0725632]}}, {"type": "Feature", "properties": {"city": "Secaucus", "state": "New Jersey", "latitude": 40.7895453, "longitude": -74.05652979999999}, "geometry": {"type": "Point", "coordinates": [-74.05652979999999, 40.7895453]}}, {"type": "Feature", "properties": {"city": "Waltham", "state": "Massachusetts", "latitude": 42.3764852, "longitude": -71.2356113}, "geometry": {"type": "Point", "coordinates": [-71.2356113, 42.3764852]}}, {"type": "Feature", "properties": {"city": "Tarrytown", "state": "New York", "latitude": 41.0762077, "longitude": -73.85874609999999}, "geometry": {"type": "Point", "coordinates": [-73.85874609999999, 41.0762077]}}, {"type": "Feature", "properties": {"city": "Birmingham", "state": "Alabama", "latitude": 33.5185892, "longitude": -86.8103567}, "geometry": {"type": "Point", "coordinates": [-86.8103567, 33.5185892]}}, {"type": "Feature", "properties": {"city": "Sarasota", "state": "Florida", "latitude": 27.336465, "longitude": -82.5310117}, "geometry": {"type": "Point", "coordinates": [-82.5310117, 27.336465]}}, {"type": "Feature", "properties": {"city": "Dublin", "state": "California", "latitude": 37.7101033, "longitude": -121.9270174}, "geometry": {"type": "Point", "coordinates": [-121.9270174, 37.7101033]}}, {"type": "Feature", "properties": {"city": "Boca Raton", "state": "Florida", "latitude": 26.3683064, "longitude": -80.1289321}, "geometry": {"type": "Point", "coordinates": [-80.1289321, 26.3683064]}}, {"type": "Feature", "properties": {"city": "Orrville", "state": "Ohio", "latitude": 40.8436663, "longitude": -81.7640212}, "geometry": {"type": "Point", "coordinates": [-81.7640212, 40.8436663]}}, {"type": "Feature", "properties": {"city": "Kenosha", "state": "Wisconsin", "latitude": 42.5847425, "longitude": -87.82118539999999}, "geometry": {"type": "Point", "coordinates": [-87.82118539999999, 42.5847425]}}, {"type": "Feature", "properties": {"city": "New Britain", "state": "Connecticut", "latitude": 41.6612104, "longitude": -72.7795419}, "geometry": {"type": "Point", "coordinates": [-72.7795419, 41.6612104]}}, {"type": "Feature", "properties": {"city": "Fort Wayne", "state": "Indiana", "latitude": 41.079273, "longitude": -85.1393513}, "geometry": {"type": "Point", "coordinates": [-85.1393513, 41.079273]}}, {"type": "Feature", "properties": {"city": "Kalamazoo", "state": "Michigan", "latitude": 42.2917069, "longitude": -85.5872286}, "geometry": {"type": "Point", "coordinates": [-85.5872286, 42.2917069]}}, {"type": "Feature", "properties": {"city": "Wayne", "state": "Pennsylvania", "latitude": 40.0415996, "longitude": -75.3698895}, "geometry": {"type": "Point", "coordinates": [-75.3698895, 40.0415996]}}, {"type": "Feature", "properties": {"city": "North Reading", "state": "Massachusetts", "latitude": 42.5750939, "longitude": -71.0786653}, "geometry": {"type": "Point", "coordinates": [-71.0786653, 42.5750939]}}, {"type": "Feature", "properties": {"city": "Framingham", "state": "Massachusetts", "latitude": 42.279286, "longitude": -71.4161565}, "geometry": {"type": "Point", "coordinates": [-71.4161565, 42.279286]}}, {"type": "Feature", "properties": {"city": "Brentwood", "state": "Tennessee", "latitude": 36.0331164, "longitude": -86.78277720000001}, "geometry": {"type": "Point", "coordinates": [-86.78277720000001, 36.0331164]}}, {"type": "Feature", "properties": {"city": "Westminster", "state": "Colorado", "latitude": 39.8366528, "longitude": -105.0372046}, "geometry": {"type": "Point", "coordinates": [-105.0372046, 39.8366528]}}, {"type": "Feature", "properties": {"city": "Plano", "state": "Texas", "latitude": 33.0198431, "longitude": -96.6988856}, "geometry": {"type": "Point", "coordinates": [-96.6988856, 33.0198431]}}, {"type": "Feature", "properties": {"city": "Springdale", "state": "Arkansas", "latitude": 36.1745404, "longitude": -94.13898309999999}, "geometry": {"type": "Point", "coordinates": [-94.13898309999999, 36.1745404]}}, {"type": "Feature", "properties": {"city": "Highlands Ranch", "state": "Colorado", "latitude": 39.5480789, "longitude": -104.9739333}, "geometry": {"type": "Point", "coordinates": [-104.9739333, 39.5480789]}}, {"type": "Feature", "properties": {"city": "Bolingbrook", "state": "Illinois", "latitude": 41.69864159999999, "longitude": -88.0683955}, "geometry": {"type": "Point", "coordinates": [-88.0683955, 41.69864159999999]}}, {"type": "Feature", "properties": {"city": "Sandy Springs", "state": "Georgia", "latitude": 33.9304352, "longitude": -84.3733147}, "geometry": {"type": "Point", "coordinates": [-84.3733147, 33.9304352]}}, {"type": "Feature", "properties": {"city": "Minnetonka", "state": "Minnesota", "latitude": 44.9211836, "longitude": -93.4687489}, "geometry": {"type": "Point", "coordinates": [-93.4687489, 44.9211836]}}, {"type": "Feature", "properties": {"city": "King of Prussia", "state": "Pennsylvania", "latitude": 40.1012856, "longitude": -75.3835525}, "geometry": {"type": "Point", "coordinates": [-75.3835525, 40.1012856]}}, {"type": "Feature", "properties": {"city": "San Antonio", "state": "Texas", "latitude": 29.4251905, "longitude": -98.4945922}, "geometry": {"type": "Point", "coordinates": [-98.4945922, 29.4251905]}}, {"type": "Feature", "properties": {"city": "Dulles", "state": "Virginia", "latitude": 38.9639112, "longitude": -77.4496269}, "geometry": {"type": "Point", "coordinates": [-77.4496269, 38.9639112]}}, {"type": "Feature", "properties": {"city": "Jersey City", "state": "New Jersey", "latitude": 40.7177545, "longitude": -74.0431435}, "geometry": {"type": "Point", "coordinates": [-74.0431435, 40.7177545]}}, {"type": "Feature", "properties": {"city": "Greenwich", "state": "Connecticut", "latitude": 41.0262417, "longitude": -73.6281964}, "geometry": {"type": "Point", "coordinates": [-73.6281964, 41.0262417]}}, {"type": "Feature", "properties": {"city": "Bentonville", "state": "Arkansas", "latitude": 36.3723561, "longitude": -94.21021410000002}, "geometry": {"type": "Point", "coordinates": [-94.21021410000002, 36.3723561]}}, {"type": "Feature", "properties": {"city": "Burbank", "state": "California", "latitude": 34.1808392, "longitude": -118.3089661}, "geometry": {"type": "Point", "coordinates": [-118.3089661, 34.1808392]}}, {"type": "Feature", "properties": {"city": "Milford", "state": "Massachusetts", "latitude": 42.1398577, "longitude": -71.5163049}, "geometry": {"type": "Point", "coordinates": [-71.5163049, 42.1398577]}}, {"type": "Feature", "properties": {"city": "Toledo", "state": "Ohio", "latitude": 41.6528052, "longitude": -83.5378674}, "geometry": {"type": "Point", "coordinates": [-83.5378674, 41.6528052]}}, {"type": "Feature", "properties": {"city": "Exton", "state": "Pennsylvania", "latitude": 40.0325817, "longitude": -75.6274583}, "geometry": {"type": "Point", "coordinates": [-75.6274583, 40.0325817]}}, {"type": "Feature", "properties": {"city": "London", "state": "United Kingdom", "latitude": 51.5072178, "longitude": -0.1275862}, "geometry": {"type": "Point", "coordinates": [-0.1275862, 51.5072178]}}, {"type": "Feature", "properties": {"city": "White Plains", "state": "New York", "latitude": 41.03398620000001, "longitude": -73.7629097}, "geometry": {"type": "Point", "coordinates": [-73.7629097, 41.03398620000001]}}, {"type": "Feature", "properties": {"city": "Lincolnshire", "state": "Illinois", "latitude": 42.1900249, "longitude": -87.9084039}, "geometry": {"type": "Point", "coordinates": [-87.9084039, 42.1900249]}}, {"type": "Feature", "properties": {"city": "Warsaw", "state": "Indiana", "latitude": 41.2381, "longitude": -85.8530469}, "geometry": {"type": "Point", "coordinates": [-85.8530469, 41.2381]}}, {"type": "Feature", "properties": {"city": "Parsippany", "state": "New Jersey", "latitude": 40.8652865, "longitude": -74.41738769999999}, "geometry": {"type": "Point", "coordinates": [-74.41738769999999, 40.8652865]}}]}